{
  "AFG": {
    "lat": 33.9391,
    "lng": 67.71,
    "icon": "🇦🇫",
    "name_jp": "アフガニスタン"
  },
  "ALB": {
    "lat": 41.1533,
    "lng": 20.1683,
    "icon": "🇦🇱",
    "name_jp": "アルバニア"
  },
  "DZA": {
    "lat": 28.0339,
    "lng": 1.6596,
    "icon": "🇩🇿",
    "name_jp": "アルジェリア"
  },
  "ARG": {
    "lat": -38.4161,
    "lng": -63.6167,
    "icon": "🇦🇷",
    "name_jp": "アルゼンチン"
  },
  "ARM": {
    "lat": 40.0691,
    "lng": 45.0382,
    "icon": "🇦🇲",
    "name_jp": "アルメニア"
  },
  "AUS": {
    "lat": -25.2744,
    "lng": 133.7751,
    "icon": "🇦🇺",
    "name_jp": "オーストラリア"
  },
  "AUT": {
    "lat": 47.5162,
    "lng": 14.5501,
    "icon": "🇦🇹",
    "name_jp": "オーストリア"
  },
  "AZE": {
    "lat": 40.1431,
    "lng": 47.5769,
    "icon": "🇦🇿",
    "name_jp": "アゼルバイジャン"
  },
  "BGD": {
    "lat": 23.685,
    "lng": 90.3563,
    "icon": "🇧🇩",
    "name_jp": "バングラデシュ"
  },
  "BLR": {
    "lat": 53.7098,
    "lng": 27.9534,
    "icon": "🇧🇾",
    "name_jp": "ベラルーシ"
  },
  "BEL": {
    "lat": 50.5039,
    "lng": 4.4699,
    "icon": "🇧🇪",
    "name_jp": "ベルギー"
  },
  "BOL": {
    "lat": -16.2902,
    "lng": -63.5887,
    "icon": "🇧🇴",
    "name_jp": "ボリビア"
  },
  "BIH": {
    "lat": 43.9159,
    "lng": 17.6791,
    "icon": "🇧🇦",
    "name_jp": "ボスニア・ヘルツェゴビナ"
  },
  "BRA": {
    "lat": -14.235,
    "lng": -51.9253,
    "icon": "🇧🇷",
    "name_jp": "ブラジル"
  },
  "BGR": {
    "lat": 42.7339,
    "lng": 25.4858,
    "icon": "🇧🇬",
    "name_jp": "ブルガリア"
  },
  "KHM": {
    "lat": 12.5657,
    "lng": 104.991,
    "icon": "🇰🇭",
    "name_jp": "カンボジア"
  },
  "CMR": {
    "lat": 7.3697,
    "lng": 12.3547,
    "icon": "🇨🇲",
    "name_jp": "カメルーン"
  },
  "CAN": {
    "lat": 56.1304,
    "lng": -106.3468,
    "icon": "🇨🇦",
    "name_jp": "カナダ"
  },
  "CAF": {
    "lat": 6.6111,
    "lng": 20.9394,
    "icon": "🇨🇫",
    "name_jp": "中央アフリカ共和国"
  },
  "TCD": {
    "lat": 15.4542,
    "lng": 18.7322,
    "icon": "🇹🇩",
    "name_jp": "チャド"
  },
  "CHL": {
    "lat": -35.6751,
    "lng": -71.543,
    "icon": "🇨🇱",
    "name_jp": "チリ"
  },
  "CHN": {
    "lat": 35.8617,
    "lng": 104.1954,
    "icon": "🇨🇳",
    "name_jp": "中国"
  },
  "COL": {
    "lat": 4.5709,
    "lng": -74.2973,
    "icon": "🇨🇴",
    "name_jp": "コロンビア"
  },
  "CUB": {
    "lat": 21.5218,
    "lng": -77.7812,
    "icon": "🇨🇺",
    "name_jp": "キューバ"
  },
  "CYP": {
    "lat": 35.1264,
    "lng": 33.4299,
    "icon": "🇨🇾",
    "name_jp": "キプロス"
  },
  "CZE": {
    "lat": 49.8175,
    "lng": 15.473,
    "icon": "🇨🇿",
    "name_jp": "チェコ"
  },
  "DEU": {
    "lat": 51.1657,
    "lng": 10.4515,
    "icon": "🇩🇪",
    "name_jp": "ドイツ"
  },
  "DOM": {
    "lat": 18.7357,
    "lng": -70.1627,
    "icon": "🇩🇴",
    "name_jp": "ドミニカ共和国"
  },
  "ECU": {
    "lat": -1.8312,
    "lng": -78.1834,
    "icon": "🇪🇨",
    "name_jp": "エクアドル"
  },
  "EGY": {
    "lat": 26.8206,
    "lng": 30.8025,
    "icon": "🇪🇬",
    "name_jp": "エジプト"
  },
  "SLV": {
    "lat": 13.7942,
    "lng": -88.8965,
    "icon": "🇸🇻",
    "name_jp": "エルサルバドル"
  },
  "ETH": {
    "lat": 9.145,
    "lng": 40.4897,
    "icon": "🇪🇹",
    "name_jp": "エチオピア"
  },
  "FIN": {
    "lat": 61.9241,
    "lng": 25.7482,
    "icon": "🇫🇮",
    "name_jp": "フィンランド"
  },
  "FRA": {
    "lat": 46.2276,
    "lng": 2.2137,
    "icon": "🇫🇷",
    "name_jp": "フランス"
  },
  "GHA": {
    "lat": 7.9465,
    "lng": -1.0232,
    "icon": "🇬🇭",
    "name_jp": "ガーナ"
  },
  "GRC": {
    "lat": 39.0742,
    "lng": 21.8243,
    "icon": "🇬🇷",
    "name_jp": "ギリシャ"
  },
  "GTM": {
    "lat": 15.7835,
    "lng": -90.2308,
    "icon": "🇬🇹",
    "name_jp": "グアテマラ"
  },
  "HTI": {
    "lat": 18.9712,
    "lng": -72.2852,
    "icon": "🇭🇹",
    "name_jp": "ハイチ"
  },
  "HND": {
    "lat": 15.2,
    "lng": -86.2419,
    "icon": "🇭🇳",
    "name_jp": "ホンジュラス"
  },
  "HUN": {
    "lat": 47.1625,
    "lng": 19.5033,
    "icon": "🇭🇺",
    "name_jp": "ハンガリー"
  },
  "IND": {
    "lat": 20.5937,
    "lng": 78.9629,
    "icon": "🇮🇳",
    "name_jp": "インド"
  },
  "IDN": {
    "lat": -0.7893,
    "lng": 113.9213,
    "icon": "🇮🇩",
    "name_jp": "インドネシア"
  },
  "IRN": {
    "lat": 32.4279,
    "lng": 53.688,
    "icon": "🇮🇷",
    "name_jp": "イラン"
  },
  "IRQ": {
    "lat": 33.2232,
    "lng": 43.6793,
    "icon": "🇮🇶",
    "name_jp": "イラク"
  },
  "IRL": {
    "lat": 53.4129,
    "lng": -8.2439,
    "icon": "🇮🇪",
    "name_jp": "アイルランド"
  },
  "ISR": {
    "lat": 31.0461,
    "lng": 34.8516,
    "icon": "🇮🇱",
    "name_jp": "イスラエル"
  },
  "ITA": {
    "lat": 41.8719,
    "lng": 12.5674,
    "icon": "🇮🇹",
    "name_jp": "イタリア"
  },
  "JPN": {
    "lat": 36.2048,
    "lng": 138.2529,
    "icon": "🇯🇵",
    "name_jp": "日本"
  },
  "JOR": {
    "lat": 30.5852,
    "lng": 36.2384,
    "icon": "🇯🇴",
    "name_jp": "ヨルダン"
  },
  "KAZ": {
    "lat": 48.0196,
    "lng": 66.9237,
    "icon": "🇰🇿",
    "name_jp": "カザフスタン"
  },
  "KEN": {
    "lat": -0.0236,
    "lng": 37.9062,
    "icon": "🇰🇪",
    "name_jp": "ケニア"
  },
  "KWT": {
    "lat": 29.3117,
    "lng": 47.4818,
    "icon": "🇰🇼",
    "name_jp": "クウェート"
  },
  "LAO": {
    "lat": 19.8563,
    "lng": 102.4955,
    "icon": "🇱🇦",
    "name_jp": "ラオス"
  },
  "LBN": {
    "lat": 33.8547,
    "lng": 35.8623,
    "icon": "🇱🇧",
    "name_jp": "レバノン"
  },
  "LBY": {
    "lat": 26.3351,
    "lng": 17.2283,
    "icon": "🇱🇾",
    "name_jp": "リビア"
  },
  "MYS": {
    "lat": 4.2105,
    "lng": 101.9758,
    "icon": "🇲🇾",
    "name_jp": "マレーシア"
  },
  "MLI": {
    "lat": 17.5707,
    "lng": -3.9962,
    "icon": "🇲🇱",
    "name_jp": "マリ"
  },
  "MEX": {
    "lat": 23.6345,
    "lng": -102.5528,
    "icon": "🇲🇽",
    "name_jp": "メキシコ"
  },
  "MAR": {
    "lat": 31.7917,
    "lng": -7.0926,
    "icon": "🇲🇦",
    "name_jp": "モロッコ"
  },
  "MMR": {
    "lat": 21.9162,
    "lng": 95.956,
    "icon": "🇲🇲",
    "name_jp": "ミャンマー"
  },
  "NPL": {
    "lat": 28.3949,
    "lng": 84.124,
    "icon": "🇳🇵",
    "name_jp": "ネパール"
  },
  "NLD": {
    "lat": 52.1326,
    "lng": 5.2913,
    "icon": "🇳🇱",
    "name_jp": "オランダ"
  },
  "NZL": {
    "lat": -40.9006,
    "lng": 174.886,
    "icon": "🇳🇿",
    "name_jp": "ニュージーランド"
  },
  "NIC": {
    "lat": 12.8654,
    "lng": -85.2072,
    "icon": "🇳🇮",
    "name_jp": "ニカラグア"
  },
  "NGA": {
    "lat": 9.082,
    "lng": 8.6753,
    "icon": "🇳🇬",
    "name_jp": "ナイジェリア"
  },
  "PRK": {
    "lat": 40.3399,
    "lng": 127.5101,
    "icon": "🇰🇵",
    "name_jp": "北朝鮮"
  },
  "NOR": {
    "lat": 60.472,
    "lng": 8.4689,
    "icon": "🇳🇴",
    "name_jp": "ノルウェー"
  },
  "PAK": {
    "lat": 30.3753,
    "lng": 69.3451,
    "icon": "🇵🇰",
    "name_jp": "パキスタン"
  },
  "PSE": {
    "lat": 31.9522,
    "lng": 35.2332,
    "icon": "🇵🇸",
    "name_jp": "パレスチナ"
  },
  "PER": {
    "lat": -9.19,
    "lng": -75.0152,
    "icon": "🇵🇪",
    "name_jp": "ペルー"
  },
  "PHL": {
    "lat": 12.8797,
    "lng": 121.774,
    "icon": "🇵🇭",
    "name_jp": "フィリピン"
  },
  "POL": {
    "lat": 51.9194,
    "lng": 19.1451,
    "icon": "🇵🇱",
    "name_jp": "ポーランド"
  },
  "PRT": {
    "lat": 39.3999,
    "lng": -8.2245,
    "icon": "🇵🇹",
    "name_jp": "ポルトガル"
  },
  "QAT": {
    "lat": 25.3548,
    "lng": 51.1839,
    "icon": "🇶🇦",
    "name_jp": "カタール"
  },
  "ROU": {
    "lat": 45.9432,
    "lng": 24.9668,
    "icon": "🇷🇴",
    "name_jp": "ルーマニア"
  },
  "RUS": {
    "lat": 61.524,
    "lng": 105.3188,
    "icon": "🇷🇺",
    "name_jp": "ロシア"
  },
  "SAU": {
    "lat": 23.8859,
    "lng": 45.0792,
    "icon": "🇸🇦",
    "name_jp": "サウジアラビア"
  },
  "SRB": {
    "lat": 44.0165,
    "lng": 21.0059,
    "icon": "🇷🇸",
    "name_jp": "セルビア"
  },
  "SGP": {
    "lat": 1.3521,
    "lng": 103.8198,
    "icon": "🇸🇬",
    "name_jp": "シンガポール"
  },
  "SVK": {
    "lat": 48.669,
    "lng": 19.699,
    "icon": "🇸🇰",
    "name_jp": "スロバキア"
  },
  "SOM": {
    "lat": 5.1521,
    "lng": 46.1996,
    "icon": "🇸🇴",
    "name_jp": "ソマリア"
  },
  "ZAF": {
    "lat": -30.5595,
    "lng": 22.9375,
    "icon": "🇿🇦",
    "name_jp": "南アフリカ"
  },
  "KOR": {
    "lat": 35.9078,
    "lng": 127.7669,
    "icon": "🇰🇷",
    "name_jp": "韓国"
  },
  "ESP": {
    "lat": 40.4637,
    "lng": -3.7492,
    "icon": "🇪🇸",
    "name_jp": "スペイン"
  },
  "LKA": {
    "lat": 7.8731,
    "lng": 80.7718,
    "icon": "🇱🇰",
    "name_jp": "スリランカ"
  },
  "SDN": {
    "lat": 12.8628,
    "lng": 30.2176,
    "icon": "🇸🇩",
    "name_jp": "スーダン"
  },
  "SWE": {
    "lat": 60.1282,
    "lng": 18.6435,
    "icon": "🇸🇪",
    "name_jp": "スウェーデン"
  },
  "CHE": {
    "lat": 46.8182,
    "lng": 8.2275,
    "icon": "🇨🇭",
    "name_jp": "スイス"
  },
  "SYR": {
    "lat": 34.8021,
    "lng": 38.9968,
    "icon": "🇸🇾",
    "name_jp": "シリア"
  },
  "TWN": {
    "lat": 23.6978,
    "lng": 120.9605,
    "icon": "🇹🇼",
    "name_jp": "台湾"
  },
  "THA": {
    "lat": 15.87,
    "lng": 100.9925,
    "icon": "🇹🇭",
    "name_jp": "タイ"
  },
  "TUR": {
    "lat": 38.9637,
    "lng": 35.2433,
    "icon": "🇹🇷",
    "name_jp": "トルコ"
  },
  "UGA": {
    "lat": 1.3733,
    "lng": 32.2903,
    "icon": "🇺🇬",
    "name_jp": "ウガンダ"
  },
  "UKR": {
    "lat": 48.3794,
    "lng": 31.1656,
    "icon": "🇺🇦",
    "name_jp": "ウクライナ"
  },
  "ARE": {
    "lat": 23.4241,
    "lng": 53.8478,
    "icon": "🇦🇪",
    "name_jp": "アラブ首長国連邦"
  },
  "GBR": {
    "lat": 55.3781,
    "lng": -3.436,
    "icon": "🇬🇧",
    "name_jp": "イギリス"
  },
  "USA": {
    "lat": 39.8283,
    "lng": -98.5795,
    "icon": "🇺🇸",
    "name_jp": "アメリカ合衆国"
  },
  "VEN": {
    "lat": 6.4238,
    "lng": -66.5897,
    "icon": "🇻🇪",
    "name_jp": "ベネズエラ"
  },
  "VNM": {
    "lat": 14.0583,
    "lng": 108.2772,
    "icon": "🇻🇳",
    "name_jp": "ベトナム"
  },
  "YEM": {
    "lat": 15.5527,
    "lng": 48.5164,
    "icon": "🇾🇪",
    "name_jp": "イエメン"
  },
  "ZWE": {
    "lat": -19.0154,
    "lng": 29.1549,
    "icon": "🇿🇼",
    "name_jp": "ジンバブエ"
  },
  "EUR": {
    "lat": 50.8503,
    "lng": 4.3517,
    "icon": "🇪🇺",
    "name_jp": "欧州連合"
  }
}